City_ID,City,Lat,Lng,Max Temp,Humidity,Cloudiness,Wind Speed,Country,Date
0,ushuaia,-54.8,-68.3,12.81,58,40,1.03,AR,1738791637
1,margate,51.3813,1.3862,5.94,89,100,0.45,GB,1738791663
2,saint-philippe,-21.3585,55.7679,27.65,81,30,4.31,RE,1738791664
3,keflavik,64.0049,-22.5624,6.24,70,100,21.61,IS,1738791665
4,port-aux-francais,-49.35,70.2167,7.32,95,99,9.41,TF,1738791667
5,hamilton,39.1834,-84.5333,1.08,88,100,3.13,US,1738791668
6,mineros,-17.1167,-63.2333,30.27,51,81,2.04,BO,1738791669
7,ketchikan,55.3422,-131.6461,1.99,55,0,5.66,US,1738791670
8,olonkinbyen,70.9221,-8.7187,-1.15,78,77,12.4,SJ,1738791671
9,papatowai,-46.5619,169.4708,13.98,58,56,2.46,NZ,1738791672
10,san patricio,28.017,-97.5169,27.97,59,80,7.47,US,1738791674
11,albany,42.6001,-73.9662,-4.64,50,25,1.34,US,1738791675
12,puerto natales,-51.7236,-72.4875,14.25,47,75,2.06,CL,1738791677
13,blackmans bay,-43.0167,147.3167,13.74,78,62,0.45,AU,1738791678
14,lebu,-37.6167,-73.65,18.46,81,1,4.78,CL,1738791447
15,qaqortoq,60.7167,-46.0333,-22.58,83,3,3.36,GL,1738791681
16,al matariyah,31.1829,32.0311,12.97,55,57,12.06,EG,1738791682
17,vuktyl,63.8567,57.3094,-7.29,96,100,1.82,RU,1738791683
18,tamanrasset,22.785,5.5228,13.95,62,40,1.03,DZ,1738791684
19,vorgashor,67.5833,63.95,-13.96,97,98,3.19,RU,1738791687
20,punta arenas,-53.15,-70.9167,15.06,41,0,6.69,CL,1738791590
21,nyaunglebin,17.95,96.7333,18.17,87,0,1.3,MM,1738791689
22,grytviken,-54.2811,-36.5092,1.62,95,98,5.64,GS,1738791690
23,puerto deseado,-47.7503,-65.8938,20.38,44,76,12.98,AR,1738791691
24,katerini,40.2719,22.5025,5.84,67,0,1.53,GR,1738791693
25,lihue,21.9789,-159.3672,24.3,69,20,4.63,US,1738791694
26,aasiaat,68.7098,-52.8699,-31.45,97,55,1.59,GL,1738791695
27,mil'kovo,55.6078,37.7956,-0.21,68,99,2.12,RU,1738791696
28,stanley,54.868,-1.6985,0.29,91,0,3.09,GB,1738791699
29,constitucion,-35.3333,-72.4167,20.55,54,11,7.17,CL,1738791700
30,vilhena,-12.7406,-60.1458,23.12,94,100,5.66,BR,1738791701
31,san antonio de pale,-1.4014,5.6325,27.44,79,100,3.07,GQ,1738791702
32,west island,-12.1568,96.8225,27.99,89,20,6.17,CC,1738791703
33,yarmouth,41.7057,-70.2286,-2.8,56,0,4.92,US,1738791704
34,adamstown,-25.066,-130.1015,25.29,78,4,6.37,PN,1738791706
35,dul'durga,50.6761,113.5931,-22.18,90,100,3.05,RU,1738791707
36,box elder,41.5005,-112.8764,6.03,47,38,11.55,US,1738791708
37,al mindak,20.1588,41.2834,12.79,86,56,0.53,SA,1738791709
38,east london,-33.0153,27.9116,21.31,90,99,2.4,ZA,1738791710
39,ust-nera,64.5667,143.2,-41.13,98,64,1.58,RU,1738791711
40,bredasdorp,-34.5322,20.0403,17.72,53,100,2.32,ZA,1738791713
41,alghero,40.5589,8.3181,9.43,71,0,2.06,IT,1738791714
42,port elizabeth,-33.918,25.5701,20.17,96,90,1.34,ZA,1738791715
43,tiksi,71.6872,128.8694,-30.31,97,100,3.27,RU,1738791716
44,isafjordur,66.0755,-23.124,-0.05,87,71,11.96,IS,1738791717
45,karoi,-16.8099,29.6925,18.33,83,96,1.65,ZW,1738791718
46,georgetown,5.4112,100.3354,26.96,78,20,1.03,MY,1738791720
47,tan-tan,28.438,-11.1032,15.31,58,0,6.28,MA,1738791721
48,san andres,12.5847,-81.7006,30.01,66,20,7.2,CO,1738791722
49,bethel,41.3712,-73.414,-0.61,43,93,1.34,US,1738791723
50,mirabad,30.4362,61.8383,10.59,23,0,3.81,AF,1738791726
51,ribeira grande,38.5167,-28.7,18.22,94,75,5.36,PT,1738791727
52,longyearbyen,78.2186,15.6401,-0.09,59,20,4.63,SJ,1738791729
53,kudahuvadhoo,2.6708,72.8944,27.39,70,19,5.73,MV,1738791730
54,solikamsk,59.6196,56.7729,-9.74,92,100,1.79,RU,1738791731
55,rongelap,11.1635,166.8941,26.59,83,93,9.08,MH,1738791733
56,ljusdal,61.8288,16.0913,-1.13,80,10,2.65,SE,1738791734
57,crane,31.3974,-102.3501,28.49,17,0,3.49,US,1738791735
58,qulsary,46.9531,54.0198,-3.87,91,7,6.07,KZ,1738791736
59,puerto ayora,-0.7393,-90.3518,25.86,92,23,2.24,EC,1738791737
60,celestun,20.8667,-90.4,26.45,69,8,7.2,MX,1738791739
61,inirida,3.8653,-67.9239,27.52,76,83,2.08,CO,1738791741
62,bizerte,37.2744,9.8739,9.0,93,40,0.0,TN,1738791742
63,udachny,66.4167,112.4,-23.2,99,100,1.81,RU,1738791743
64,hawaiian paradise park,19.5933,-154.9731,24.37,73,75,4.12,US,1738791744
65,papar,5.7333,115.9333,25.0,87,99,0.57,MY,1738791746
66,vadso,70.0744,29.7487,-3.91,86,75,9.77,NO,1738791747
67,edinburgh of the seven seas,-37.0676,-12.3116,18.88,95,89,12.04,SH,1738791748
68,iqaluit,63.7506,-68.5145,-31.15,69,75,1.54,CA,1738791749
69,college,64.8569,-147.8028,-8.85,80,100,0.0,US,1738791750
70,kuta,-8.7233,115.1723,27.97,94,20,2.57,ID,1738791752
71,talnakh,69.4865,88.3972,-23.23,97,82,3.32,RU,1738791753
72,ust'-ilimsk,58.0006,102.6619,-23.49,97,100,2.07,RU,1738791577
73,susuman,62.7833,148.1667,-44.81,96,68,0.34,RU,1738791756
74,moree,-29.4667,149.85,26.71,45,1,3.44,AU,1738791758
75,kayangel,8.0823,134.7173,27.83,81,100,8.68,PW,1738791759
76,mili,6.0815,171.735,27.08,83,72,9.67,MH,1738791760
77,mitu,1.1983,-70.1733,23.32,92,100,2.0,CO,1738791761
78,kindu,-2.95,25.95,21.61,98,99,1.24,CD,1738791762
79,anna regina,7.2644,-58.5077,25.42,84,71,3.45,GY,1738791763
80,wailua homesteads,22.0669,-159.378,23.96,73,20,4.63,US,1738791765
81,atafu village,-8.5421,-172.5159,28.26,75,18,7.46,TK,1738791767
82,arraial do cabo,-22.9661,-42.0278,26.98,65,20,8.23,BR,1738791768
83,kedougou,12.5579,-12.1743,25.6,15,100,1.61,SN,1738791769
84,hithadhoo,-0.6,73.0833,27.67,65,32,5.74,MV,1738791770
85,badger,64.8,-147.5333,-8.9,86,100,0.0,US,1738791772
86,ola,59.5833,151.2833,-24.35,80,9,3.69,RU,1738791773
87,jamestown,42.097,-79.2353,-4.13,62,0,2.57,US,1738791542
88,padang,-0.9492,100.3543,25.03,87,95,1.89,ID,1738791775
89,borogontsy,62.6683,131.1683,-42.79,100,53,1.13,RU,1738791776
90,monki,53.405,22.7979,-0.73,82,7,1.87,PL,1738791777
91,ilulissat,69.2167,-51.1,-23.99,58,75,4.12,GL,1738791778
92,tolanaro,-25.0319,46.9987,26.04,83,40,3.09,MG,1738791780
93,roxas city,11.5853,122.7511,25.16,86,94,3.38,PH,1738791781
94,waitangi,-43.9535,-176.5597,14.34,84,92,3.13,NZ,1738791782
95,jinjiang,24.8198,118.5741,12.28,56,99,2.73,CN,1738791783
96,thompson,55.7435,-97.8558,-13.91,56,75,6.69,CA,1738791784
97,cozumel,20.5083,-86.9458,28.04,74,75,5.66,MX,1738791785
98,krasnogvardeyskoye,45.8456,41.5186,0.22,66,99,5.14,RU,1738791787
99,kargopol',61.5071,38.9456,-9.71,98,100,2.75,RU,1738791788
100,bonthe,7.5264,-12.505,25.03,80,11,3.94,SL,1738791789
101,port lincoln,-34.7333,135.8667,18.86,76,0,4.13,AU,1738791790
102,goundam,16.4145,-3.6708,21.96,16,94,4.67,ML,1738791791
103,kendari,-3.945,122.4989,23.99,95,100,0.73,ID,1738791793
104,vilyuchinsk,52.9306,158.4028,1.15,86,100,8.2,RU,1738791794
105,brookings,44.3114,-96.7984,-7.68,77,100,3.6,US,1738791795
106,grafton,42.207,-71.6856,-2.8,40,0,5.14,US,1738791796
107,mossendjo,-2.9506,12.7261,21.51,98,88,1.0,CG,1738791797
108,constantia,44.1833,28.65,-3.5,64,21,6.05,RO,1738791798
109,norrtalje,59.758,18.705,1.68,88,20,2.46,SE,1738791800
110,kodiak,57.79,-152.4072,-1.27,86,0,0.0,US,1738791801
111,aykhal,66.0,111.5,-25.03,100,99,2.07,RU,1738791802
112,kapuskasing,49.4169,-82.4331,-7.95,48,75,8.75,CA,1738791804
113,villa gesell,-37.2639,-56.973,19.1,78,100,8.75,AR,1738791806
114,vila velha,-20.3297,-40.2925,27.97,69,0,7.2,BR,1738791807
115,sangre grande,10.5835,-61.1177,27.98,80,0,3.05,TT,1738791808
116,invercargill,-46.4,168.35,13.9,76,84,1.79,NZ,1738791605
117,laguna,38.421,-121.4238,13.9,47,0,2.57,US,1738791810
118,tocopilla,-22.092,-70.1979,22.27,74,25,2.08,CL,1738791812
119,vryburg,-26.9566,24.7284,24.25,49,78,6.08,ZA,1738791813
120,abbeville,50.1,1.8333,4.6,87,100,1.26,FR,1738791814
121,koryazhma,61.3143,47.1691,-3.54,91,100,1.77,RU,1738791815
122,jwaneng,-24.6004,24.7303,24.85,41,88,4.26,BW,1738791816
123,yichun,47.7,128.9,-21.02,98,100,2.08,CN,1738791817
124,hanko,59.8333,22.95,3.24,98,100,5.81,FI,1738791819
125,whitehorse,60.7161,-135.0538,-20.57,84,75,2.57,CA,1738791820
126,nidzica,53.3605,20.4275,1.31,90,100,3.4,PL,1738791821
127,miyako,39.6367,141.9525,-1.94,54,57,10.35,JP,1738791735
128,petropavlovsk-kamchatsky,53.0452,158.6483,0.33,34,75,6.0,RU,1738791823
129,kingston,17.997,-76.7936,31.53,48,20,2.57,JM,1738791606
130,new norfolk,-42.7826,147.0587,14.95,59,44,0.87,AU,1738791826
131,peace river,56.2501,-117.286,-22.83,77,100,6.17,CA,1738791827
132,happy valley-goose bay,53.3168,-60.3315,-17.83,50,20,3.09,CA,1738791829
133,sol'-iletsk,51.1631,54.9918,-8.54,85,66,6.33,RU,1738791831
134,adigrat,14.277,39.462,14.44,33,0,0.51,ET,1738791832
135,lamar,33.6668,-95.5836,20.5,84,100,4.12,US,1738791833
136,chibougamau,49.9168,-74.3659,-15.21,66,100,8.23,CA,1738791834
137,port alfred,-33.5906,26.891,20.1,99,100,0.89,ZA,1738791837
138,bel ombre,-4.6167,55.4167,24.91,94,40,2.57,SC,1738791838
139,sitka,57.0531,-135.33,3.94,56,0,0.0,US,1738791839
140,sarangani,5.4033,125.4636,27.77,73,100,0.68,PH,1738791840
141,kiamba,5.9894,124.6242,25.37,81,100,0.67,PH,1738791841
142,marang,5.2056,103.2059,23.95,84,93,0.78,MY,1738791842
143,kalengwa,-13.4659,25.0027,18.3,99,100,1.26,ZM,1738791844
144,pandan,14.0453,124.1694,24.58,93,88,6.24,PH,1738791845
145,horta,38.5333,-28.6333,17.8,96,75,5.36,PT,1738791846
146,selkirk,50.1436,-96.8845,-10.46,54,100,1.79,CA,1738791847
147,batouri,4.4333,14.3667,25.62,25,99,0.72,CM,1738791848
148,ronne,55.1009,14.7066,4.95,93,6,4.63,DK,1738791849
149,sena madureira,-9.0656,-68.6569,28.16,73,85,1.22,BR,1738791851
150,port mathurin,-19.6833,63.4167,26.88,78,3,2.68,MU,1738791852
151,ponta delgada,37.7333,-25.6667,18.44,100,75,4.12,PT,1738791853
152,puerto lempira,15.2667,-83.7667,30.08,70,40,4.63,HN,1738791854
153,vanimo,-2.6741,141.3028,25.38,90,100,1.3,PG,1738791855
154,nova vicosa,-17.8919,-39.3719,25.92,83,75,4.28,BR,1738791856
155,anadyr,64.75,177.4833,-37.72,73,0,5.0,RU,1738791858
156,phetchabun,16.25,101.0833,24.09,54,91,1.7,TH,1738791859
157,alotau,-10.3069,150.4462,27.97,79,100,3.55,PG,1738791860
158,okha,53.5739,142.9478,-2.98,87,100,12.38,RU,1738791861
159,el calafate,-50.3408,-72.2768,14.25,48,48,2.36,AR,1738791862
160,tommot,58.9564,126.2925,-43.64,100,96,0.24,RU,1738791863
161,kualakapuas,-3.0091,114.3876,22.98,97,98,1.24,ID,1738791865
162,tafuna,-14.3358,-170.72,29.97,70,75,2.06,AS,1738791866
163,planaltina,-15.4528,-47.6142,20.1,83,100,1.19,BR,1738791867
164,nabire,-3.3667,135.4833,23.84,90,100,0.89,ID,1738791868
165,cafayate,-26.073,-65.9761,29.38,31,77,4.94,AR,1738791869
166,tazovsky,67.4667,78.7,-19.66,98,50,3.19,RU,1738791870
167,uttarkashi,30.7333,78.45,2.04,49,0,3.25,IN,1738791872
168,kilindoni,-7.9139,39.6668,27.1,78,100,7.75,TZ,1738791873
169,pocahontas,36.2615,-90.9712,7.93,98,100,2.06,US,1738791874
170,cooma,-36.2333,149.1333,19.22,73,11,1.6,AU,1738791875
171,nogliki,51.8333,143.1667,-1.74,95,100,13.56,RU,1738791876
172,kailua-kona,19.6406,-155.9956,26.82,66,40,3.09,US,1738791878
173,newport,51.5877,-2.9984,5.3,88,66,3.95,GB,1738791879
174,rio grande,-32.035,-52.0986,25.85,87,0,8.89,BR,1738791880
175,porto novo,6.4965,2.6036,28.9,84,42,3.9,BJ,1738791881
176,kununurra,-15.7667,128.7333,26.99,78,100,3.09,AU,1738791882
177,waajid,3.8096,43.2463,26.38,39,65,5.91,SO,1738791883
178,marathon,44.9,-89.7668,-5.87,66,0,4.63,US,1738791885
179,rockland,41.1668,-74.0496,0.47,41,100,0.45,US,1738791886
180,tual,-5.6667,132.75,28.29,77,100,9.85,ID,1738791887
181,mujiayingzi,42.1167,118.7833,-16.29,77,0,3.03,CN,1738791888
182,jaisalmer,26.9147,70.9181,15.88,16,0,3.32,IN,1738791889
183,vila franca do campo,37.7167,-25.4333,18.27,99,100,2.02,PT,1738791890
184,margaret river,-33.95,115.0667,19.12,80,0,7.79,AU,1738791892
185,san luis de la loma,17.2706,-100.8939,29.21,53,0,3.56,MX,1738791893
186,ndjole,-0.1783,10.7649,24.76,97,97,0.68,GA,1738791894
187,surazh,53.0175,32.3918,-2.58,84,44,3.89,RU,1738791895
188,letlhakane,-21.4167,25.5833,25.86,38,5,1.62,BW,1738791896
189,st. john's,47.5649,-52.7093,-7.79,73,75,10.29,CA,1738791898
190,raahe,64.6833,24.4833,-2.59,96,100,3.71,FI,1738791899
191,tralee,52.2704,-9.7026,3.07,88,1,2.31,IE,1738791900
192,iskateley,67.6803,53.1512,-8.92,92,83,7.42,RU,1738791901
193,teluk intan,4.0259,101.0213,22.01,93,88,1.06,MY,1738791902
194,weyburn,49.6668,-103.8511,-15.88,85,100,2.57,CA,1738791903
195,bamboo flat,11.7,92.7167,24.05,94,40,1.03,IN,1738791905
196,minas de marcona,-15.2119,-75.1103,21.64,65,94,6.71,PE,1738791906
197,yellowknife,62.456,-114.3525,-3.66,88,100,5.66,CA,1738791907
198,luderitz,-26.6481,15.1594,20.06,69,92,11.22,NA,1738791908
199,tazacorte,28.629,-17.9293,18.54,77,75,4.63,ES,1738791909
200,la prairie,45.4168,-73.4992,-12.16,56,0,9.26,CA,1738791912
201,safi,32.1667,-8.8333,11.07,71,1,3.88,MA,1738791913
202,sao joao da barra,-21.6403,-41.0511,27.05,84,0,7.94,BR,1738791914
203,chonchi,-42.6128,-73.8092,17.84,67,81,2.89,CL,1738791915
204,vilyuysk,63.7553,121.6247,-45.98,100,61,1.36,RU,1738791916
205,leirvik,59.7798,5.5005,2.48,82,69,3.29,NO,1738791918
206,monywa,22.1167,95.1333,19.06,58,2,2.76,MM,1738791919
207,amga,60.8953,131.9608,-43.28,100,85,0.54,RU,1738791920
208,pontianak,-0.0333,109.3333,23.99,100,100,1.03,ID,1738791921
209,miquelon,47.0975,-56.3814,-7.3,69,99,12.57,PM,1738791922
210,sinabang,2.4803,96.3801,25.95,83,97,1.35,ID,1738791924
211,fada,7.25,4.0667,25.3,85,41,1.12,NG,1738791925
212,colonia,50.9333,6.95,4.03,92,100,0.51,DE,1738791897
213,carnarvon,-24.8667,113.6333,26.05,77,5,7.28,AU,1738791927
214,mejit,10.2753,170.8646,26.36,85,100,10.17,MH,1738791928
215,neryungri,56.6709,124.6491,-31.5,99,99,2.14,RU,1738791929
216,marsabit,2.3284,37.9899,21.51,31,100,4.31,KE,1738791931
217,fort bragg,35.139,-79.006,11.75,60,100,4.63,US,1738791932
218,mao,39.8885,4.2658,9.31,81,75,2.06,ES,1738791933
219,saipan,15.1355,145.701,27.39,78,0,5.14,MP,1738791935
220,herencia,39.2831,-3.4145,7.12,53,0,2.12,ES,1738791937
221,el alto,-4.2714,-81.2147,22.85,73,21,6.03,PE,1738791938
222,hasaki,35.7333,140.8333,3.57,34,0,7.44,JP,1738791939
223,praia da vitoria,38.7333,-27.0667,18.14,88,20,4.03,PT,1738791940
224,lloydminster,53.2835,-110.0016,-19.88,77,100,3.6,CA,1738791941
225,christchurch,-43.5333,172.6333,18.28,82,20,5.66,NZ,1738791823
226,pervomaysk,48.0443,30.8507,-1.43,71,97,4.01,UA,1738791944
227,pitimbu,-7.4706,-34.8086,26.27,84,92,6.75,BR,1738791945
228,pangody,65.85,74.4859,-17.28,98,99,3.55,RU,1738791946
229,abepura,-2.6333,140.5833,23.45,100,20,0.51,ID,1738791947
230,chatham,51.3789,0.5279,6.74,88,100,2.81,GB,1738791948
231,hotan,37.0997,79.9269,-2.58,47,100,0.95,CN,1738791949
232,bilibino,68.0546,166.4372,-42.03,96,7,1.14,RU,1738791951
233,oranjemund,-28.55,16.4333,17.0,82,29,8.66,NA,1738791952
234,nampula,-15.1165,39.2666,20.74,95,98,0.06,MZ,1738791953
235,boa vista,2.8197,-60.6733,31.99,48,40,4.63,BR,1738791954
236,butembo,0.15,29.2833,18.23,52,100,1.04,CD,1738791955
237,kodinsk,58.6881,99.1844,-16.31,97,100,1.28,RU,1738791956
238,batticaloa,7.7102,81.6924,25.11,74,42,3.77,LK,1738791958
239,ghanzi,-21.5667,21.7833,25.61,34,6,3.49,BW,1738791959
240,saint-pierre,-21.3393,55.4781,26.82,83,20,2.06,RE,1738791960
241,holualoa,19.6228,-155.9522,24.75,66,40,3.09,US,1738791961
242,kirensk,57.7853,108.1119,-41.16,100,73,0.98,RU,1738791962
243,ithaca,42.4406,-76.4966,-3.27,66,100,0.45,US,1738791964
244,utrik,11.2278,169.8474,26.2,83,100,9.63,MH,1738791965
245,hilo,19.7297,-155.09,24.49,77,75,4.12,US,1738791875
246,cabo san lucas,22.8909,-109.9124,26.17,36,0,3.09,MX,1738791670
247,afaahiti,-17.75,-149.2833,26.04,80,88,6.29,PF,1738791970
248,wangjing,24.6,94.0333,8.28,91,2,0.27,IN,1738791971
249,sicklerville,39.7173,-74.9693,2.58,44,100,0.8,US,1738791972
250,nuuk,64.1835,-51.7216,-13.66,72,75,3.09,GL,1738791973
251,baley,51.6,116.6333,-31.9,100,98,1.32,RU,1738791974
252,olyokminsk,60.3736,120.4264,-41.03,100,87,0.44,RU,1738791975
253,bogande,12.9714,-0.1436,26.17,14,27,3.65,BF,1738791977
254,pathein,16.7833,94.7333,20.38,78,1,2.93,MM,1738791978
255,mount gambier,-37.8333,140.7667,17.03,81,11,2.68,AU,1738791979
256,kabompo,-13.5927,24.2008,19.0,98,100,1.29,ZM,1738791980
257,enshi,30.3,109.4833,4.86,97,100,0.65,CN,1738791983
258,portland,45.5234,-122.6762,6.36,85,100,6.17,US,1738791767
259,hermanus,-34.4187,19.2345,15.45,57,100,4.99,ZA,1738791985
260,saint-francois,46.4154,3.9054,3.69,94,100,1.03,FR,1738791987
261,harstad,68.799,16.5293,0.64,91,37,3.58,NO,1738791989
262,nadi,-17.8,177.4167,26.0,83,75,4.12,FJ,1738791990
263,nemuro,43.3236,145.575,-0.12,73,10,9.56,JP,1738791951
264,lotoshino,56.2267,35.6414,-1.34,84,100,1.81,RU,1738791992
265,sur,22.5667,59.5289,18.94,56,57,1.74,OM,1738791993
266,mogocha,53.7333,119.7667,-24.52,90,87,2.32,RU,1738791994
267,tura,25.5198,90.2201,15.47,61,0,1.85,IN,1738791996
268,kromy,52.6876,35.7667,-4.74,94,77,2.69,RU,1738791997
269,shingu,33.7333,135.9833,-0.04,63,10,5.34,JP,1738791998
270,fale old settlement,-9.3852,-171.2468,28.45,75,97,7.79,TK,1738791999
271,sabang,5.8933,95.3214,27.53,76,78,5.65,ID,1738792002
272,tabou,4.423,-7.3528,26.9,85,8,3.66,CI,1738792003
273,dudinka,69.4058,86.1778,-21.81,98,99,3.41,RU,1738792004
274,lubango,-14.9172,13.4925,16.56,95,100,0.78,AO,1738792005
275,laguna de perlas,12.3429,-83.6712,25.3,89,1,6.6,NI,1738792006
276,cogan,10.5931,124.0178,24.25,88,100,1.27,PH,1738792007
277,namibe,-15.1961,12.1522,23.31,83,100,2.17,AO,1738792009
278,khandyga,62.6667,135.6,-43.32,100,50,0.44,RU,1738792010
279,kitui,-1.367,38.0106,20.41,53,100,1.64,KE,1738792012
280,coahuayana de hidalgo,18.7,-103.6583,30.27,52,0,2.85,MX,1738792013
281,kavaratti,10.5669,72.642,26.96,73,9,3.77,IN,1738792015
282,papao,-17.75,-149.55,27.31,77,82,5.96,PF,1738792016
283,taoudenni,22.6783,-3.9836,17.47,16,0,6.15,ML,1738792017
284,itoman,26.1247,127.6694,14.01,54,75,2.06,JP,1738792018
285,zhanibek,49.4167,46.85,-3.32,68,50,4.58,KZ,1738792019
286,mercedes,-34.6515,-59.4307,18.97,83,89,6.77,AR,1738792020
287,suva,-18.1416,178.4415,25.71,94,75,2.06,FJ,1738792022
288,uzda,53.4627,27.2137,-2.43,65,97,1.7,BY,1738792023
289,al jubayl,27.0112,49.6583,18.54,49,100,10.2,SA,1738792024
290,mildura,-34.2,142.15,27.97,32,0,1.86,AU,1738792025
291,phan rang-thap cham,11.5667,108.9833,18.06,91,56,2.81,VN,1738792026
292,el sauzal de rodriguez,31.9,-116.6833,17.44,64,16,5.67,MX,1738792027
293,houghton,47.1219,-88.569,-6.29,65,100,2.57,US,1738792030
294,lamu,-2.2717,40.902,24.16,90,100,5.62,KE,1738792031
295,la passe,45.5549,-0.8967,7.75,78,63,5.74,FR,1738792032
296,zarzis,33.504,11.1122,13.68,79,52,4.01,TN,1738792033
297,xiva,41.3783,60.3639,3.07,60,6,4.04,UZ,1738792034
298,bousso,10.4795,16.7117,26.08,15,57,3.51,TD,1738792036
299,bahia blanca,-38.7196,-62.2724,27.98,40,59,4.72,AR,1738792037
300,pulaski,34.7668,-92.3001,11.7,92,100,0.0,US,1738792038
301,mantua,45.1667,10.7833,2.34,86,1,0.7,IT,1738792039
302,sangmelima,2.9333,11.9833,21.9,86,100,1.55,CM,1738792040
303,tamandare,-8.7597,-35.1047,25.9,84,100,4.48,BR,1738792041
304,verkhnyaya sinyachikha,57.976,61.6673,-16.34,100,100,1.31,RU,1738792043
305,isiro,2.7739,27.616,24.14,48,100,0.87,CD,1738792044
306,kosh-agach,50.0,88.6667,-30.94,89,59,0.98,RU,1738792045
307,kourou,5.1552,-52.6478,24.22,95,95,2.62,GF,1738792046
308,sao tome,0.3365,6.7273,27.23,79,100,2.4,ST,1738792047
309,darwin,-12.4611,130.8418,24.99,100,0,1.54,AU,1738792049
310,hurricane,37.1753,-113.2899,19.63,41,9,2.64,US,1738792050
311,avarua,-21.2078,-159.775,29.03,84,100,3.6,CK,1738792052
312,deir ez-zor,35.3359,40.1408,10.5,59,98,1.47,SY,1738792053
313,baiquan,47.5833,126.0833,-27.19,98,85,2.95,CN,1738792054
314,sainte-suzanne,-20.9061,55.6089,27.1,89,75,3.6,RE,1738792056
315,vallenar,-28.5708,-70.7581,27.19,42,0,3.13,CL,1738792057
316,enewetak,11.3474,162.3373,27.01,74,99,7.48,MH,1738792058
317,tindouf,27.6711,-8.1474,17.25,22,0,2.57,DZ,1738792059
318,uturoa,-16.7333,-151.4333,28.03,73,71,5.85,PF,1738792060
319,mersa matruh,31.3525,27.2453,14.11,51,40,9.77,EG,1738792061
320,selebi-phikwe,-21.979,27.8498,25.17,41,0,2.42,BW,1738792063
321,dabakala,8.3667,-4.4333,28.39,16,22,1.58,CI,1738792064
322,ambilobe,-13.2,49.05,23.28,92,100,0.38,MG,1738792065
323,zhelezinka,53.54,75.3072,-17.33,94,5,3.82,KZ,1738792066
324,kamen'-rybolov,44.7481,132.0403,-15.86,65,100,5.55,RU,1738792067
325,burang,30.25,81.1667,-19.06,59,47,3.72,CN,1738792069
326,toliara,-23.35,43.6667,27.01,84,23,1.33,MG,1738792070
327,grand baie,-20.0182,57.5802,26.92,87,3,3.69,MU,1738792071
328,maamba,-17.3667,27.15,22.32,72,59,1.16,ZM,1738792072
329,boden,65.8252,21.6886,-2.72,79,43,3.85,SE,1738792073
330,visby,57.6409,18.296,4.12,93,0,1.54,SE,1738792074
331,port saint john's,-31.6229,29.5448,21.93,92,100,4.58,ZA,1738792076
332,kidal,18.4411,1.4078,24.46,21,100,4.15,ML,1738792077
333,hadibu,12.65,54.0333,21.92,71,9,4.13,YE,1738792078
334,minab,27.1467,57.0801,17.19,60,94,1.16,IR,1738792079
335,fort wellington,6.4,-57.6,25.47,83,100,4.44,GY,1738792080
336,sundargarh,22.1167,84.0333,19.63,45,2,2.92,IN,1738792081
337,antalaha,-14.9003,50.2788,24.6,87,100,1.45,MG,1738792083
338,quang ngai,15.1167,108.8,19.28,87,98,0.86,VN,1738792084
339,usinsk,65.9939,57.5281,-13.61,97,70,4.53,RU,1738792085
340,nova sintra,14.8667,-24.7167,22.4,71,1,8.68,CV,1738792086
341,jayapura,-2.5333,140.7,23.66,92,100,1.38,ID,1738792087
342,lazaro cardenas,17.9583,-102.2,28.59,54,0,4.26,MX,1738792088
343,mount isa,-20.7333,139.5,26.87,78,100,2.57,AU,1738792090
344,usoke,-5.1667,32.35,19.26,90,100,1.6,TZ,1738792091
345,qusmuryn,52.4503,64.6311,-13.17,94,48,3.86,KZ,1738792092
346,natore,24.4165,88.9826,18.19,44,2,1.44,BD,1738792093
347,rio gallegos,-51.6226,-69.2181,20.03,19,20,3.09,AR,1738792094
348,okhotsk,59.3833,143.3,-22.36,67,22,7.13,RU,1738792096
349,riverlea,-37.8065,175.3244,21.61,75,64,1.22,NZ,1738792097
350,flin flon,54.7682,-101.865,-17.09,60,75,3.09,CA,1738792098
351,masterton,-40.9597,175.6575,19.95,46,95,1.11,NZ,1738792099
352,sume,-7.6717,-36.88,22.85,83,100,5.82,BR,1738792100
353,hobyo,5.3505,48.5268,23.72,84,19,8.47,SO,1738792101
354,chapaev,50.2,51.1667,-7.74,88,84,5.04,KZ,1738792103
355,zaozersk,69.4005,32.4476,-6.49,86,97,9.7,RU,1738792104
356,prieska,-29.6641,22.7474,27.15,35,100,5.07,ZA,1738792106
357,roberval,48.5168,-72.2324,-11.65,52,20,4.63,CA,1738792107
358,kenora,49.8167,-94.4337,-12.46,56,100,3.6,CA,1738792109
359,puerto real,36.5282,-6.1901,12.36,71,0,1.03,ES,1738792110
360,yung shue wan,22.2333,114.1167,16.46,63,100,7.42,HK,1738792111
361,yelizovo,53.1873,158.3805,1.08,34,75,6.0,RU,1738792112
362,la sarre,48.8002,-79.1996,-12.51,82,51,4.87,CA,1738792113
363,korla,41.7597,86.1469,-8.78,76,100,2.86,CN,1738792114
364,pacific grove,36.6177,-121.9166,14.94,61,0,3.6,US,1738792116
365,sola,-13.8833,167.55,27.55,75,90,3.58,VU,1738792117
366,gordonvale,-17.0936,145.7842,27.88,95,100,0.58,AU,1738792118
367,jieshi,22.8134,115.8257,14.81,70,100,7.69,CN,1738792120
368,saraikela,22.7167,85.95,21.25,41,44,2.67,IN,1738792122
369,calama,-22.4667,-68.9333,25.27,19,0,13.38,CL,1738792123
370,luanda,-8.8368,13.2343,26.46,82,99,4.07,AO,1738792124
371,klyuchi,52.2667,79.1667,-16.54,83,5,5.1,RU,1738792125
372,kon tum,14.35,108.0,12.65,97,36,0.96,VN,1738792126
373,rikaze,29.25,88.8833,-2.33,25,0,2.05,CN,1738792127
374,bardai,11.65,7.2333,20.93,11,1,4.41,NG,1738792129
375,mount pearl,47.5166,-52.7813,-8.25,75,75,10.29,CA,1738792130
376,lafayette,30.2335,-92.0668,26.69,64,20,4.63,US,1738792131
377,san pablo,14.0669,121.3258,22.97,93,77,2.48,PH,1738792132
378,cill airne,52.05,-9.5167,3.61,85,2,2.18,IE,1738792133
379,lensk,60.7253,114.9278,-39.14,100,48,1.22,RU,1738792134
380,ta`u,-14.2336,-169.5144,27.83,75,100,3.64,AS,1738792136
381,mariakani,-3.8633,39.4736,25.05,93,100,2.51,KE,1738792137
382,warman,52.3168,-106.5679,-18.95,77,100,3.09,CA,1738792138
383,ozieri,40.586,9.0012,3.6,85,100,1.44,IT,1738792139
384,woolgoolga,-30.1106,153.2007,22.93,79,14,1.68,AU,1738792140
385,rio frio de juarez,19.35,-98.6667,13.35,48,58,0.21,MX,1738792141
386,ash shatrah,31.4117,46.1742,15.28,28,7,1.82,IQ,1738792143
387,sholokhovskiy,48.2807,41.0459,-6.85,91,61,3.05,RU,1738792144
388,janakpur,26.7183,85.9065,14.23,73,0,2.87,NP,1738792145
389,axim,4.8699,-2.2405,26.99,86,31,4.91,GH,1738792146
390,kudymkar,59.0173,54.656,-14.6,99,100,1.61,RU,1738792147
391,puerto maldonado,-12.6,-69.1833,32.22,55,20,3.09,PE,1738792148
392,mwinilunga,-11.7358,24.4293,17.96,98,100,1.31,ZM,1738792150
393,singaraja,-8.112,115.0882,26.71,87,98,3.22,ID,1738792151
394,itamaraca,-7.7478,-34.8256,25.83,86,92,5.56,BR,1738792152
395,daru,-9.0763,143.2092,25.4,90,100,5.69,PG,1738792153
396,caleta de carquin,-11.0925,-77.6267,23.79,75,83,3.74,PE,1738792154
397,nova xavantina,-14.6667,-52.35,22.83,94,73,1.68,BR,1738792155
398,yuzhno-kurilsk,44.0306,145.8556,-2.31,79,32,5.96,RU,1738792157
399,puerto armuelles,8.2833,-82.8667,26.72,69,100,1.34,PA,1738792158
400,teruel,40.6667,-0.6667,0.8,78,0,1.05,ES,1738792159
401,manthani,18.65,79.6667,22.92,46,1,2.32,IN,1738792160
402,corner brook,48.9667,-57.9484,-13.2,90,100,5.16,CA,1738792161
403,la ronge,55.1001,-105.2842,-16.86,55,75,4.12,CA,1738792162
404,glace bay,46.1969,-59.957,-9.46,68,100,8.75,CA,1738792164
405,alice springs,-23.7,133.8833,24.75,47,55,2.06,AU,1738792165
406,aginskoye,51.1,114.53,-21.82,91,100,5.18,RU,1738792167
407,tulln,48.3283,16.0586,2.8,81,75,3.09,AT,1738792169
408,st. marys,30.7305,-81.5465,26.14,67,0,3.09,US,1738792170
409,baiti,13.745,-14.7482,25.1,12,12,3.96,SN,1738792171
410,kapa'a,22.0752,-159.319,24.71,73,20,4.63,US,1738792172
411,kisangani,0.5167,25.2,25.13,64,100,0.12,CD,1738792173
412,tinajo,29.0788,-13.7081,16.49,67,20,6.69,ES,1738792174
413,dunedin,-45.8742,170.5036,13.22,88,97,1.79,NZ,1738792102
414,bocas del toro,9.3333,-82.25,26.55,77,30,3.78,PA,1738792177
415,khovd,48.0056,91.6419,-17.61,62,0,3.14,MN,1738792178
416,madalena,41.2162,-8.3345,9.05,68,81,1.64,PT,1738792179
417,mokhsogollokh,61.4681,128.9203,-43.01,100,65,1.37,RU,1738792180
418,zakamensk,50.3741,103.2863,-25.8,92,100,1.64,RU,1738792181
419,alliance,40.9153,-81.1059,-1.31,66,100,3.55,US,1738792183
420,geraldton,-28.7667,114.6,22.23,94,100,1.54,AU,1738792184
421,mukalla,14.5425,49.1242,19.48,68,1,3.11,YE,1738792185
422,raub,3.7899,101.857,21.33,99,99,0.98,MY,1738792186
423,mandalgovi,45.7625,106.2708,-26.25,78,80,11.14,MN,1738792187
424,ilebo,-4.3167,20.5833,22.06,88,100,0.44,CD,1738792189
425,rumbek,6.802,29.6912,31.08,24,86,2.17,SS,1738792190
426,sinop,41.7711,34.8709,-2.31,98,100,1.89,TR,1738792191
427,homer,59.6425,-151.5483,0.58,78,0,1.34,US,1738792192
428,fortaleza,-3.7227,-38.5247,28.45,78,75,3.6,BR,1738792193
429,karratha,-20.7377,116.8463,30.1,71,63,4.01,AU,1738792194
430,saldanha,-33.0117,17.9442,17.6,69,0,12.43,ZA,1738792196
431,kolondieba,11.0882,-6.8926,25.36,15,74,2.68,ML,1738792197
432,polyarnyy,69.1989,33.4478,-5.43,82,100,10.87,RU,1738792198
433,acapulco de juarez,16.8634,-99.8901,28.9,70,0,5.66,MX,1738792000
434,tymovskoye,50.8456,142.655,-1.27,87,100,6.82,RU,1738792200
435,smara,26.7384,-11.6719,17.62,29,0,3.99,EH,1738792201
436,taroa,8.7058,171.2275,26.89,85,59,10.02,MH,1738792203
437,medina de pomar,42.9294,-3.488,3.27,94,1,1.61,ES,1738792204
438,stiens,53.2623,5.7577,4.99,84,75,1.54,NL,1738792205
439,abadeh,31.1608,52.6506,4.75,26,68,5.19,IR,1738792206
440,saint-felicien,48.6501,-72.4491,-11.62,52,20,4.63,CA,1738792207
441,mar del plata,-38.0023,-57.5575,22.27,80,100,6.69,AR,1738791909
442,luninyets,52.2472,26.8047,-2.33,62,99,1.5,BY,1738792210
443,vesoul,47.5833,5.8333,0.05,89,4,2.68,FR,1738792211
444,tainan,22.9908,120.2133,12.95,88,75,0.0,TW,1738792212
445,bayan,46.0833,127.4,-32.26,100,77,2.28,CN,1738792213
446,whistler,50.1164,-122.9695,-9.43,53,75,1.54,CA,1738792214
447,osorno,-40.5667,-73.15,22.17,60,75,5.66,CL,1738792216
448,beloyarskiy,63.7119,66.6722,-12.98,97,100,1.43,RU,1738792217
449,xai-xai,-25.0519,33.6442,24.45,79,0,4.37,MZ,1738792218
450,lompoc,34.6391,-120.4579,15.38,83,100,3.09,US,1738792219
451,camanducaia,-22.7553,-46.1447,17.89,96,100,1.31,BR,1738792220
452,hryhoriopol,47.1536,29.2964,-1.89,66,52,2.72,MD,1738792221
453,ust'-barguzin,53.45,108.9833,-27.55,99,95,0.46,RU,1738792223
454,lerik,38.7726,48.4128,-0.32,100,100,2.83,AZ,1738792224
455,valparaiso,-33.0393,-71.6273,28.13,37,0,10.8,CL,1738792225
456,rabo de peixe,37.8,-25.5833,17.77,99,75,4.12,PT,1738792226
457,nyurba,63.2842,118.3319,-44.91,100,61,1.71,RU,1738792227
458,arcoverde,-8.4189,-37.0539,21.43,89,100,4.22,BR,1738792228
459,belmonte,-15.8631,-38.8828,25.98,81,100,2.74,BR,1738792230
460,takaungu,-3.6837,39.8566,25.08,85,99,5.58,KE,1738792231
461,al ghayzah,16.2079,52.176,19.03,65,45,3.16,YE,1738792232
462,argo,37.6333,22.7333,5.27,75,0,1.48,GR,1738792233
463,dourbali,11.8091,15.8632,24.05,13,30,4.64,TD,1738792234
464,bharatpur,27.2167,77.4833,10.56,33,0,3.31,IN,1738792235
465,port-gentil,-0.7193,8.7815,27.98,83,20,1.03,GA,1738792237
466,ghat,24.9647,10.1728,16.63,30,88,3.33,LY,1738792238
467,sorong,-0.8833,131.25,26.34,82,100,4.62,ID,1738792239
468,dingli,35.8614,14.3822,12.12,93,40,2.57,MT,1738792240
469,remire-montjoly,4.9167,-52.2667,27.02,89,75,4.63,GF,1738792241
470,kamwenge,0.1866,30.4539,19.79,57,100,0.16,UG,1738792243
471,saudarkrokur,65.7461,-19.6394,2.77,75,100,17.12,IS,1738792244
472,acarau,-2.8856,-40.12,26.47,79,95,4.87,BR,1738792245
473,choibalsan,48.0667,114.5,-21.66,94,100,6.72,MN,1738792246
474,inarajan village,13.2736,144.7484,27.44,83,100,8.52,GU,1738792247
475,villamontes,-21.25,-63.5,39.69,29,20,2.06,BO,1738792248
476,noumea,-22.2763,166.4572,28.9,99,96,2.12,NC,1738792250
477,victoria,22.2855,114.1577,16.81,65,100,2.68,HK,1738792020
478,turpan,42.9333,89.1667,-4.17,60,6,1.31,CN,1738792252
479,parthenay,46.6667,-0.4167,5.98,92,98,5.39,FR,1738792253
480,namtsy,62.7161,129.6658,-41.68,99,50,1.67,RU,1738792254
481,gao,16.6362,1.637,26.19,18,100,4.8,ML,1738792256
482,leava,-14.3,-178.1667,28.36,70,86,1.61,WF,1738792257
483,suoyarvi,62.0833,32.35,-5.92,92,100,5.02,RU,1738792246
484,askoy,60.4092,5.226,4.87,93,40,2.06,NO,1738792259
485,sirte,31.2089,16.5887,15.38,73,97,3.82,LY,1738792260
486,ak'ordat,15.5486,37.8867,24.7,52,0,3.11,ER,1738792261
487,joshimath,30.5667,79.5667,-2.11,41,0,4.94,IN,1738792263
488,bayside,40.8424,-124.0637,9.01,88,100,1.34,US,1738792265
489,gaozhou,21.9392,110.8461,15.92,65,100,1.07,CN,1738792266
490,gobabis,-22.45,18.9667,21.89,68,95,9.27,NA,1738792267
491,parauna,-16.9478,-50.4486,21.49,87,99,1.21,BR,1738792268
492,funafuti,-8.5243,179.1942,31.0,66,20,4.12,TV,1738792269
493,i-n-salah,27.1935,2.4607,14.26,28,0,9.07,DZ,1738792271
494,flying fish cove,-10.4217,105.6791,25.82,94,100,6.69,CX,1738792272
495,swakopmund,-22.6833,14.5333,18.52,85,92,2.3,NA,1738792273
496,santiago de cao,-7.9589,-79.2392,21.07,88,40,3.6,PE,1738792274
497,veraval,20.9,70.3667,18.04,36,0,5.51,IN,1738792275
498,lagoa,39.05,-27.9833,16.68,82,100,8.24,PT,1738792276
499,isla vista,34.4133,-119.861,17.66,91,100,4.63,US,1738792278
500,pitea,65.3172,21.4794,-0.05,77,48,4.73,SE,1738792279
501,novoagansk,61.9449,76.6625,-17.31,99,89,1.69,RU,1738792280
502,segovia,41.1667,-4.0,2.78,67,9,1.69,ES,1738792281
503,dampit,-8.2116,112.7493,21.46,94,67,1.62,ID,1738792282
504,harnoli,32.2792,71.5539,10.71,32,0,2.66,PK,1738792284
505,levuka,50.1834,-105.4011,-17.16,95,100,4.4,CA,1738792285
506,cheremshan,54.6667,51.5,-8.21,85,97,4.23,RU,1738792286
507,eusebio ayala,-25.4,-56.9667,32.45,44,93,3.22,PY,1738792287
508,macau,22.2006,113.5461,15.85,72,20,3.6,MO,1738792288
509,auki,-8.7676,160.7034,28.35,74,100,1.86,SB,1738792290
510,puerto baquerizo moreno,-0.9,-89.6,30.55,58,20,5.14,EC,1738792291
511,sao gabriel da cachoeira,-0.1303,-67.0892,22.79,100,100,0.32,BR,1738792292
512,jutai,-5.1833,-68.9,23.05,99,100,1.59,BR,1738792293
513,ouezzane,34.7971,-5.5822,6.41,71,0,2.36,MA,1738792294
514,studenka,49.7234,18.0785,2.27,93,100,1.03,CZ,1738792295
515,mont-dore,-22.2833,166.5833,28.9,72,92,2.45,NC,1738792297
516,elliot lake,46.3834,-82.6331,-8.62,92,100,2.7,CA,1738792298
517,bratsk,56.1325,101.6142,-23.73,97,100,1.33,RU,1738792299
518,gorontalo,0.5412,123.0595,24.07,94,100,1.5,ID,1738792300
519,ancud,-41.8697,-73.8203,14.79,73,99,4.4,CL,1738792301
520,touros,-5.1989,-35.4608,27.45,75,100,4.98,BR,1738792302
521,zhuanghe,39.7008,122.9911,-11.05,68,77,2.05,CN,1738792304
522,tete,-16.1564,33.5867,22.98,84,98,1.12,MZ,1738792305
523,la ferte-bernard,48.1863,0.6536,3.92,91,82,2.71,FR,1738792306
524,mburucuya,-28.0454,-58.2245,40.76,20,0,2.42,AR,1738792307
525,muddebihal,16.3333,76.1333,21.55,43,0,3.71,IN,1738792308
526,garachico,28.7781,-17.7646,17.06,68,75,4.63,ES,1738792310
527,mana,5.6592,-53.7767,24.97,90,98,4.38,GF,1738792311
528,ca mau,9.1769,105.15,20.94,90,56,1.45,VN,1738792312
529,magistral'nyy,56.1725,107.4458,-38.1,98,47,1.12,RU,1738792313
530,labrador city,52.9463,-66.9114,-22.05,64,75,4.63,CA,1738792314
531,pocito,-31.6833,-68.5833,34.85,17,0,6.8,AR,1738792317
532,chita,52.0333,113.55,-26.06,64,99,2.0,RU,1738792318
533,champerico,14.3,-91.9167,29.65,61,0,5.89,GT,1738792319
534,birobidzhan,48.8,132.95,-11.33,95,100,2.72,RU,1738792320
535,manoharpur,27.3,75.95,10.67,33,0,1.91,IN,1738792321
536,codrington,-38.2667,141.9667,19.47,72,68,3.3,AU,1738792322
537,stargard,53.3367,15.0499,3.11,88,29,0.45,PL,1738792324
538,cuatro cienegas de carranza,26.9833,-102.0833,28.71,29,0,3.72,MX,1738792325
539,pisco,-13.7,-76.2167,26.03,69,0,4.63,PE,1738792326
540,yazykovo,55.2199,56.1353,-12.94,91,100,1.02,RU,1738792327
541,shiqian,27.5225,108.2281,5.3,95,100,1.11,CN,1738792328
542,bubaque,11.2833,-15.8333,24.51,69,94,4.89,GW,1738792329
543,maslyanino,54.3436,84.2111,-14.76,80,0,4.55,RU,1738792331
544,pecos,31.4229,-103.4932,32.05,9,0,4.63,US,1738792332
545,angaur state,6.906,134.13,27.32,83,99,6.87,PW,1738792333
546,teknaf,20.8624,92.3058,18.75,59,4,4.09,BD,1738792334
547,ulladulla,-35.35,150.4667,22.55,74,32,0.81,AU,1738792335
548,qamdo,31.1667,97.2333,-4.54,71,11,3.04,CN,1738792336
549,awjilah,29.1081,21.2869,13.75,58,100,3.9,LY,1738792338
550,dhuusamarreeb,5.535,46.3861,22.38,75,11,6.44,SO,1738792339
551,revelstoke,50.9832,-118.2023,-8.99,48,100,2.06,CA,1738792340
552,inari,68.906,27.0288,-3.25,91,100,3.17,FI,1738792342
553,toktogul,41.8708,72.9402,-5.96,65,72,2.13,KG,1738792344
554,prado,-17.3411,-39.2208,26.05,80,67,4.28,BR,1738792345
555,odda,60.0691,6.5457,-6.92,98,58,1.53,NO,1738792346
556,bandarbeyla,9.4942,50.8122,22.66,77,38,6.55,SO,1738792347
557,buritis,-15.6178,-46.4233,24.2,78,85,1.86,BR,1738792348
